,City,Date,Cloudiness,Temperature,Humidity,Wind speed,Latitude,Longitude
0,Katsuura,1547955000,75,53.6,67,24.16,33.93,134.5
1,Kindu,1547955910,64,70.74,99,2.82,-2.95,25.92
2,Margate,1547953200,75,77,36,11.41,-43.03,147.26
3,Khatanga,1547955911,68,-11.34,74,7.96,71.98,102.47
4,Saint-Philippe,1547955300,90,-7.55,78,3.36,45.36,-73.48
5,Ushuaia,1547953200,40,48.2,57,26.4,-54.81,-68.31
6,Provideniya,1547955911,88,14.18,100,3.83,64.42,-173.23
7,Butaritari,1547955911,80,83.48,100,13,3.07,172.79
8,Tsiroanomandidy,1547955912,56,65.57,100,3.6,-18.77,46.05
9,Boa Vista,1547953200,0,82.4,65,11.41,2.82,-60.67
10,Rikitea,1547955913,92,80.15,100,11.21,-23.12,-134.97
11,Tuatapere,1547955913,92,55.53,100,28.66,-46.13,167.69
12,Okha,1547955913,8,0.18,96,18.25,53.59,142.95
13,Carnarvon,1547955914,0,48.06,53,10.76,-30.97,22.13
14,New Norfolk,1547953200,75,77,36,11.41,-42.78,147.06
15,Faanui,1547955914,32,83.79,100,11.54,-16.48,-151.75
16,Morwell,1547955914,0,76.73,62,3.38,-38.24,146.4
17,Port Blair,1547955915,48,82.26,100,16.02,11.67,92.75
18,Barrow,1547955915,0,67.46,62,14.23,-38.31,-60.23
19,Vaini,1547953200,0,66.16,52,5.82,15.34,74.49
20,Port Alfred,1547955916,92,61.56,100,5.61,-33.59,26.89
21,Vestmannaeyjar,1547955916,20,35.69,100,18.81,63.44,-20.27
22,Hobart,1547953200,75,77,36,11.41,-42.88,147.33
23,Kamyzyak,1547953200,75,37.4,59,8.95,46.12,48.08
24,Mar del Plata,1547955917,0,76.28,30,19.26,-46.43,-67.52
25,Orocue,1547955917,44,84.2,48,5.17,4.79,-71.34
26,Camargo,1547955917,0,37.04,38,2.71,27.69,-105.17
27,Oistins,1547953200,40,77,78,12.75,13.07,-59.53
28,Bredasdorp,1547953200,12,53.6,76,2.24,-34.53,20.04
29,Liuli,1547955918,76,76.37,100,7.63,-11.1,34.65
30,Wamba,1547955918,48,68.72,85,2.04,2.14,27.99
31,Mataura,1547955918,92,55.31,95,25.3,-46.19,168.86
32,Gladstone,1547953200,0,87.8,48,18.34,-23.84,151.26
33,Smithers,1547953200,90,37.4,78,12.75,54.78,-127.17
34,Vardo,1547954400,90,33.58,84,8.05,39.62,-77.74
35,Arraial do Cabo,1547955920,32,76.91,91,14.45,-22.97,-42.02
36,Puerto Ayora,1547955920,92,77.27,100,7.63,-0.74,-90.35
37,Half Moon Bay,1547952960,75,60.3,62,3.36,37.46,-122.43
38,Meadville,1547953560,90,23.81,95,11.41,41.64,-80.15
39,Avarua,1547953200,75,84.2,79,2.24,-21.21,-159.78
40,Bethel,1547955240,90,11.82,85,3.36,60.79,-161.76
41,Geraldton,1547953200,20,-29.21,66,3.36,49.72,-86.95
42,Kodar,1547955922,0,69.93,88,4.61,16.98,79.97
43,Nanortalik,1547955922,20,23.99,91,12.44,60.14,-45.24
44,Albany,1547954220,90,16.34,79,5.82,42.65,-73.75
45,Savannakhet,1547953200,20,77,65,4.7,16.57,104.76
46,Narsaq,1547952600,64,14,66,6.93,60.91,-46.05
47,East London,1547953200,0,60.8,67,4.7,-33.02,27.91
48,Iwanai,1547955923,88,32.13,100,6.62,42.97,140.51
49,Itarema,1547955924,32,76.19,96,4.94,-2.92,-39.92
50,Maragogi,1547955924,92,76.1,100,3.38,-9.01,-35.22
51,Hilo,1547952780,20,77,68,6.93,19.71,-155.08
52,Mahebourg,1547953200,40,78.8,83,3.36,-20.41,57.7
53,El Tocuyo,1547955924,0,62.19,92,0.69,9.79,-69.8
54,Hami,1547955925,56,18.32,81,0.69,42.84,93.51
55,Atuona,1547955879,56,78.8,100,14.9,-9.8,-139.03
56,Thompson,1547953200,5,-32.81,73,2.82,55.74,-97.86
57,Jamestown,1547955925,0,70.56,82,5.17,-33.21,138.6
58,Honiara,1547955926,56,82.94,84,3.38,-9.43,159.96
59,Ostrovnoy,1547955926,0,-12.65,77,2.82,68.05,39.51
60,Lebu,1547955986,0,35.06,77,2.59,8.96,38.73
61,Busselton,1547955986,0,82.26,66,4.61,-33.64,115.35
62,Guerrero Negro,1547955986,0,61.16,44,9.19,27.97,-114.04
63,Seymchan,1547955987,20,-37.89,74,2.59,62.93,152.39
64,Coquimbo,1547953200,20,59,87,6.93,-29.95,-71.34
65,Natchez,1547952960,90,37.31,75,18.34,31.56,-91.4
66,Beloha,1547955962,44,75.65,89,2.93,-25.17,45.06
67,Caranavi,1547955987,24,64.22,92,1.59,-15.83,-67.57
68,Hermanus,1547955988,8,45.09,96,4.5,-34.42,19.24
69,Amapa,1547953200,20,75.2,83,2.24,15.09,-87.97
70,Poum,1547955000,90,33.8,100,1.12,41.28,20.71
71,Port Hedland,1547953200,0,96.8,56,12.75,-20.31,118.58
72,Constitucion,1547952540,5,46.4,39,4.7,23.99,-104.67
73,Punta Arenas,1547953200,20,48.2,86,23.04,-53.16,-70.91
74,Kuandian,1547955989,0,18.18,28,6.73,40.73,124.78
75,Tuy Hoa,1547955989,88,73.53,100,6.96,13.08,109.3
76,Xining,1547955990,76,10.76,73,2.59,36.62,101.77
77,Tasiilaq,1547952600,8,24.8,79,5.82,65.61,-37.64
78,Yellowknife,1547954400,90,-5.81,76,10.29,62.45,-114.38
79,Mogadishu,1547955901,0,78.26,100,23.17,2.04,45.34
80,Concepcion del Oro,1547955990,0,37.22,71,2.59,24.63,-101.42
81,Bluff,1547955991,0,92.34,38,12.66,-23.58,149.07
82,Kincardine,1547954400,90,36.28,93,6.93,56.07,-3.72
83,Ponta do Sol,1547955890,36,67.46,93,1.25,-20.63,-46
84,Bada,1547955991,20,68.49,49,5.61,12.41,4.51
85,Leningradskiy,1547955992,32,-8.51,99,16.69,69.38,178.42
86,Kastamonu,1547955992,12,9.05,76,4.05,41.38,33.78
87,Kifri,1547955992,0,19.13,67,2.93,34.69,44.96
88,Csengod,1547954100,90,30.2,100,4.7,46.72,19.27
89,Cabo San Lucas,1547952360,5,68,64,3.6,22.89,-109.91
90,Meulaboh,1547955993,64,78.62,100,5.17,4.14,96.13
91,Bam,1547955993,0,24.21,67,3.15,29.11,58.36
92,Sambava,1547955994,92,75.74,100,16.46,-14.27,50.17
93,Kamenka,1547955994,76,20.48,89,11.65,53.19,44.05
94,Cidreira,1547955994,100,69.98,94,11.54,-30.17,-50.22
95,Behbahan,1547953200,0,33.8,78,4.16,30.59,50.24
96,Kapaa,1547952960,1,78.17,68,12.75,22.08,-159.32
97,Buraydah,1547953200,0,42.8,87,4.7,26.33,43.97
98,Comodoro Rivadavia,1547953200,0,78.8,26,11.41,-45.87,-67.48
99,Hofn,1547955995,0,37.13,100,15.68,64.25,-15.21
100,Victoria,1547953200,75,85.21,83,6.93,5.28,115.24
101,Lasa,1547953200,20,50.52,87,6.93,34.92,32.53
102,Neepawa,1547953200,90,-16.61,68,10.29,50.23,-99.46
103,Klaksvik,1547954400,92,39.2,80,21.92,62.23,-6.59
104,Cape Town,1547953200,0,53.6,71,3.36,-33.93,18.42
105,Ribeira Grande,1547955997,76,61.97,100,3.94,38.52,-28.7
106,Puerto del Rosario,1547953200,0,63.37,68,9.17,28.5,-13.86
107,Pangnirtung,1547955997,12,-33.53,59,3.38,66.15,-65.72
108,Hoyanger,1547954400,12,28.4,86,9.17,61.22,6.07
109,Changli,1547955998,68,46.4,98,4.38,30.54,105.42
110,Nikolskoye,1547953200,40,24.8,85,6.71,59.7,30.79
111,Kargasok,1547955998,76,18.41,85,5.39,59.06,80.87
112,Chokurdakh,1547955998,12,-42.62,0,2.71,70.62,147.9
113,Sovetskaya Gavan,1547955998,64,8.69,100,5.73,48.97,140.29
114,Nadym,1547955999,0,-11.3,56,3.15,65.53,72.51
115,Salinopolis,1547955999,88,78.84,100,9.64,-0.61,-47.36
116,North Vanlaiphai,1547955999,0,57.11,71,2.48,23.13,93.07
117,Sao Filipe,1547955999,8,71.01,97,17.02,14.9,-24.5
118,Sisophon,1547956000,0,86.09,43,7.96,13.59,102.97
119,Canutama,1547956000,8,76.46,96,2.26,-6.53,-64.38
120,Dikson,1547956060,64,6.62,100,10.98,73.51,80.55
121,Port Elizabeth,1547954460,90,41.23,93,17.22,39.31,-74.98
122,Rome,1547954400,75,43.43,75,4.7,41.89,12.48
123,Lompoc,1547954100,75,57.63,87,6.93,34.64,-120.46
124,Guanare,1547956061,8,74.12,75,4.72,9.04,-69.74
125,Gizo,1547954400,0,45.7,87,3.36,31.8,34.94
126,Necochea,1547956061,0,63.05,76,13,-38.55,-58.74
127,Yumen,1547956062,36,15.21,92,3.6,40.29,97.04
128,Jiayuguan,1547956062,44,12.24,72,3.04,39.77,98.29
129,Plettenberg Bay,1547956062,0,60.84,100,5.17,-34.05,23.37
130,Dingle,1547956062,80,75.56,100,8.75,11,122.67
131,Sibolga,1547956062,44,74.48,96,2.15,1.74,98.78
132,Kiunga,1547956063,0,90.32,60,2.93,-6.12,141.3
133,Swellendam,1547953200,0,53.6,76,2.24,-34.02,20.44
134,Dhidhdhoo,1547956063,0,79.56,100,4.72,6.88,73.1
135,Georgetown,1547953200,20,75.2,94,6.93,6.8,-58.16
136,Shimoda,1547954880,75,57.06,58,14.99,34.7,138.93
137,Puerto Baquerizo Moreno,1547956064,92,78.21,100,9.42,-0.9,-89.6
138,Mehamn,1547956064,76,20.84,87,9.75,71.03,27.85
139,Ahuimanu,1547955480,90,78.22,69,8.05,21.44,-157.84
140,Skelleftea,1547954400,0,-11.21,76,2.24,64.75,20.95
141,Ambilobe,1547956031,92,72.54,99,7.18,-13.19,49.05
142,Ntoum,1547955000,75,77,94,5.82,0.39,9.76
143,Airai,1547956065,80,78.62,83,2.04,-8.93,125.41
144,Altamira,1547956065,92,72.18,100,2.82,-3.2,-52.21
145,Aklavik,1547953200,90,-4.01,76,6.06,68.22,-135.01
146,Kuna,1547954100,90,41.47,100,6.93,43.49,-116.42
147,Sulangan,1547956066,92,77.63,100,25.75,11.14,123.72
148,Igrim,1547956066,80,15.35,91,4.27,63.19,64.42
149,Sibu,1547953200,75,80.6,88,2.24,2.29,111.83
150,Castro,1547953200,0,53.6,93,3.36,-42.48,-73.76
151,Diamantino,1547956067,56,74.57,94,4.61,-14.4,-56.44
152,Ilulissat,1547952600,76,1.4,84,11.41,69.22,-51.1
153,Mount Isa,1547953200,0,105.8,13,13.87,-20.73,139.49
154,Akdepe,1547953200,90,29.28,92,13.87,42.05,59.39
155,Agirish,1547956068,76,19.31,84,4.05,61.92,63.02
156,Kiama,1547953200,75,77,61,9.17,-34.67,150.86
157,Cayenne,1547953200,75,80.6,78,10.29,4.94,-52.33
158,Christchurch,1547955000,0,78.8,22,13.87,-43.53,172.64
159,Izmalkovo,1547956068,64,21.2,87,10.65,52.69,37.97
160,Yaan,1547956069,0,71.01,68,7.4,7.38,8.57
161,Port Macquarie,1547953200,90,82.4,65,9.17,-31.43,152.91
162,Kalabo,1547956053,12,65.75,96,4.72,-15,22.67
163,Karratha,1547955880,0,102.11,27,6.73,-20.74,116.85
164,Sioux Lookout,1547953200,5,-25.37,66,3.36,50.1,-91.92
165,Eenhana,1547956070,76,65.75,94,4.5,-17.48,16.34
166,Fortuna,1547953200,75,50.02,93,3.36,38.18,-1.13
167,Waddan,1547956070,92,52.88,87,4.72,29.16,16.14
168,Port Hardy,1547953200,40,41,86,6.93,50.7,-127.42
169,Novikovo,1547956070,44,26.15,100,3.38,45.05,34.56
170,Yerbogachen,1547956071,64,14.04,71,9.31,61.28,108.01
171,Nome,1547954100,1,40.55,61,16.11,30.04,-94.42
172,Marzuq,1547956071,0,42.62,86,2.26,14.4,46.47
173,Upernavik,1547955946,32,-9.41,100,5.17,72.79,-56.15
174,Port Lincoln,1547956071,12,73.71,73,11.65,-34.72,135.86
175,Spearfish,1547954100,90,38.73,45,14.99,44.49,-103.86
176,Bure,1547956072,0,57.78,52,3.71,10.52,10.33
177,Vejen,1547954400,56,27.5,92,3.49,55.47,9.13
178,Karpathos,1547954400,80,59,62,14.99,35.51,27.21
179,Tuktoyaktuk,1547953200,40,-7.61,83,8.05,69.44,-133.03
180,Hambantota,1547953800,75,80.6,74,4.7,6.12,81.12
181,Luderitz,1547956080,0,61.97,55,15.23,-26.65,15.16
182,Roskovec,1547956133,64,36.09,91,2.82,40.74,19.7
183,Hithadhoo,1547956133,88,79.38,100,5.5,-0.6,73.08
184,Namibe,1547956018,88,74.79,100,2.71,-15.19,12.15
185,Houma,1547956134,56,32.13,45,3.38,35.63,111.36
186,Myitkyina,1547956134,8,61.74,77,2.71,25.38,97.4
187,Andijan,1547955000,75,32.13,100,2.24,40.76,72.37
188,Sarangpur,1547956134,0,53.51,61,3.6,23.57,76.47
189,Tual,1547956135,88,77.99,100,13.56,-5.67,132.75
190,Lagoa,1547953200,20,57.2,87,12.75,37.14,-8.45
191,Umm Lajj,1547956135,0,54.36,100,3.71,25.02,37.27
192,Mahanoro,1547956135,36,76.59,91,3.71,-19.9,48.8
193,Bilma,1547956086,0,48.74,48,6.06,18.69,12.92
194,Aksarka,1547956136,0,-13.86,63,3.15,66.56,67.8
195,Jalu,1547956136,80,45.95,45,3.04,29.03,21.55
196,Olovyannaya,1547956136,8,13.86,58,5.61,50.94,115.59
197,Awjilah,1547956136,92,51.62,39,2.82,29.14,21.3
198,Ulaangom,1547956137,0,-19.58,46,2.15,49.98,92.07
199,Santa Cruz del Norte,1547952900,20,70.68,88,5.82,23.15,-81.92
200,Touros,1547953200,20,80.6,83,6.93,-5.2,-35.46
201,Qaanaaq,1547955887,0,-26.15,100,11.77,77.48,-69.36
202,Richards Bay,1547956019,92,65.93,99,12.88,-28.77,32.06
203,Mount Gambier,1547953200,0,80.6,51,12.75,-37.83,140.78
204,Kahului,1547952960,40,75.04,71,18.34,20.89,-156.47
205,Cerrito,1547953200,20,71.6,88,2.24,6.84,-72.7
206,Anloga,1547953200,20,80.6,88,5.82,5.79,0.9
207,Tukan,1547956138,92,19.94,86,3.71,53.84,57.45
208,Sitka,1547956139,0,17.42,79,4.38,37.17,-99.65
209,Hervey Bay,1547953200,32,87.8,43,16.11,-25.3,152.85
210,Cururupu,1547956139,88,77.9,92,5.39,-1.82,-44.87
211,Norman Wells,1547953200,40,-14.81,75,2.24,65.28,-126.83
212,Vao,1547956139,68,24.44,83,17.36,59.1,26.19
213,Naze,1547956140,0,75.33,88,7.74,5.43,7.07
214,Tiksi,1547956140,12,-45.09,0,2.59,71.64,128.87
215,Rio Gallegos,1547953200,75,53.6,58,6.93,-51.62,-69.22
216,Bambous Virieux,1547953200,40,78.8,83,3.36,-20.34,57.76
217,Rio Grande,1547956141,76,69.93,95,17.92,-32.03,-52.1
218,Esperance,1547953200,20,75.2,88,3.36,10.24,-61.45
219,Los Llanos de Aridane,1547953200,32,62.6,67,9.17,28.66,-17.92
220,Husavik,1547956142,12,-36.54,71,5.61,50.56,-96.99
221,Ozernovskiy,1547956142,88,32.54,92,8.75,51.5,156.52
222,Stokmarknes,1547956142,32,25.29,100,3.49,68.56,14.91
223,Tromso,1547954400,20,4.28,85,16.11,69.65,18.96
224,Omsukchan,1547956143,76,-26.42,74,3.6,62.53,155.8
225,Codrington,1547953200,40,87.13,55,10.29,-28.95,153.24
226,Pontianak,1547953200,40,80.6,83,4.7,-0.02,109.34
227,General Roca,1547953200,0,84.2,32,13.87,-39.03,-67.58
228,Menongue,1547956144,48,62.96,96,2.48,-14.66,17.68
229,Cherskiy,1547956144,8,-32.67,58,2.71,68.75,161.3
230,Harlingen,1547954100,40,57.69,42,3.36,26.19,-97.7
231,Hanover,1547954400,0,21.52,92,5.82,52.37,9.74
232,Chuy,1547955958,0,65.21,85,11.88,-33.69,-53.46
233,Adra,1547955000,0,66.2,55,5.82,23.5,86.68
234,Kushima,1547953200,75,56.88,63,23.04,31.5,131.29
235,Neftcala,1547956146,24,34.61,100,3.6,39.37,49.25
236,Komsomolskiy,1547956146,76,12.83,88,12.55,67.55,63.78
237,Zhigansk,1547955933,76,-24.89,37,11.21,66.77,123.37
238,Inirida,1547956147,24,74.48,98,1.7,3.87,-67.92
239,Alofi,1547953200,92,84.2,83,8.05,-19.06,-169.92
240,Waingapu,1547955926,48,83.16,85,3.6,-9.65,120.26
241,Riyadh,1547953200,0,41,60,0.92,24.63,46.72
242,Celestun,1547956208,76,73.22,100,28.77,20.87,-90.4
243,Dafeng,1547956208,0,44.87,74,13,33.2,120.46
244,Rosetown,1547956208,80,7.25,87,12.44,51.55,-107.99
245,Garowe,1547956209,92,62.28,98,6.51,8.41,48.48
246,La Crosse,1547954100,1,1.78,75,5.82,43.8,-91.24
247,Shangqiu,1547956209,8,38.66,55,6.62,34.42,115.65
248,Cannock,1547954400,90,37.47,100,4.7,52.69,-2.03
249,Linxia,1547956210,44,14.54,66,3.49,35.6,103.21
250,Chicama,1547953200,90,71.6,83,11.41,-7.84,-79.15
251,Upington,1547953200,0,66.2,16,1.12,-28.46,21.24
252,Barcelos,1547953200,40,51.01,81,13.87,41.53,-8.62
253,Itoman,1547955000,75,68.72,82,16.11,26.12,127.67
254,Pisco,1547953200,0,69.8,88,9.17,-13.71,-76.2
255,Lata,1547956211,44,36.05,72,2.71,30.78,78.62
256,Saint George,1547954400,75,41.85,93,4.7,39.45,22.34
257,Brand-Erbisdorf,1547954400,0,18.32,85,4.7,50.87,13.32
258,Tera,1547953200,20,50.65,87,6.93,34.97,32.42
259,Hue,1547955000,75,73.4,83,5.82,16.47,107.58
260,Sunrise Manor,1547954100,20,50.76,67,4.7,36.21,-115.07
261,Acapulco,1547952480,90,78.8,78,3.36,16.86,-99.88
262,Novoukrainskiy,1547955000,80,33.8,97,6.71,44.89,38.05
263,Biggar,1547954400,90,35.6,93,6.93,55.62,-3.52
264,Phan Thiet,1547956213,0,80.96,83,14.9,10.93,108.1
265,Olinda,1547953200,75,78.8,83,6.93,-2.03,-79.75
266,Biak,1547956214,68,82.49,91,3.6,-0.91,122.88
267,Dwarka,1547955000,40,57.2,71,2.37,28.58,77.04
268,Salalah,1547952600,0,71.6,46,24.16,17.01,54.1
269,Prince Rupert,1547953200,90,42.8,93,18.34,54.32,-130.32
270,Villarrobledo,1547956215,92,40.23,97,12.88,39.27,-2.6
271,Mumford,1547956215,8,76.1,93,5.28,5.26,-0.76
272,Vanimo,1547956215,68,78.44,100,3.6,-2.67,141.3
273,Nishihara,1547955000,75,47.66,65,4.7,35.74,139.53
274,Mocuba,1547955931,56,72.81,96,7.96,-16.84,36.99
275,Yilan,1547955000,75,71.49,69,8.05,24.75,121.75
276,Mitsamiouli,1547953200,40,80.6,83,4.7,-11.38,43.28
277,Bamboo,1547953200,40,78.8,69,10.29,18.39,-77.27
278,Santa Cruz de la Palma,1547955000,32,62.6,67,10.29,28.68,-17.76
279,Leh,1547956081,76,-12.11,69,1.14,34.16,77.58
280,Vagur,1547956217,92,44.42,100,21.72,61.47,-6.81
281,Grindavik,1547955240,75,30.2,86,28.86,63.84,-22.43
282,Moose Factory,1547953680,1,-29.21,73,2.24,51.26,-80.61
283,Mandalgovi,1547956217,0,4.73,67,14.67,45.76,106.27
284,Mwinilunga,1547956218,36,62.28,98,3.71,-11.73,24.43
285,Gold Coast,1547955000,0,84.2,58,11.41,-28,153.41
286,Barkly West,1547953200,0,59,29,6.93,-28.54,24.52
287,Oranjemund,1547956218,0,63.05,92,26.53,-28.55,16.43
288,Marau,1547955970,80,66.06,91,14.34,-28.45,-52.2
289,Nueva Gorgona,1547953200,20,77,83,6.93,8.56,-79.88
290,Kaitangata,1547956219,76,59.36,85,35.03,-46.28,169.85
291,Mareeba,1547955000,40,86,62,18.34,-16.99,145.42
292,Nemuro,1547953200,75,24.8,62,6.93,43.32,145.57
293,Yanam,1547955000,20,73.4,73,5.82,16.73,82.22
294,Polunochnoye,1547956220,36,9.5,68,3.83,60.87,60.43
295,Yulara,1547953200,20,102.2,16,11.41,-25.24,130.99
296,Zhangye,1547956220,80,16.56,93,3.6,38.94,100.46
297,Loukisia,1547954400,40,42.71,93,3.36,38.48,23.45
298,San Patricio,1547956221,44,72.05,79,5.95,-26.98,-56.83
299,Padang,1547953200,40,86,79,4.7,-0.92,100.36
300,Muli,1547956281,0,57.02,68,2.82,22.62,71.45
301,Kavieng,1547956282,92,77.76,100,9.53,-2.57,150.8
302,Leczyca,1547955000,12,15.8,92,3.36,52.06,19.2
303,Taybad,1547956221,80,33.03,93,2.37,34.74,60.78
304,Vaitape,1547956282,48,81.68,100,8.63,-16.52,-151.75
305,Gamba,1547956283,0,-3.2,55,2.26,28.28,88.52
306,Lulea,1547954400,20,-5.81,83,9.17,65.58,22.15
307,Westport,1547956283,92,44.6,100,17.13,53.8,-9.52
308,Russell,1547953200,0,75.2,60,2.24,-33.01,-68.8
309,Bathsheba,1547953200,40,77,78,12.75,13.22,-59.52
310,Doha,1547955000,0,54.63,62,6.93,25.29,51.53
311,Tambacounda,1547953200,0,68,22,9.17,13.77,-13.67
312,Tomari,1547956284,36,15.66,89,8.19,47.76,142.06
313,Wilmington,1547955300,90,37.44,93,9.17,39.75,-75.55
314,Bandarbeyla,1547956285,92,75.38,100,16.02,9.49,50.81
315,Basti,1547956285,0,55.44,89,0.81,26.79,82.72
316,Laguna,1547956285,0,62.78,70,2.26,27.52,-110.01
317,Yar-Sale,1547956285,0,-5.31,83,5.17,66.83,70.83
318,Vila Velha,1547953200,20,77,94,4.7,-3.71,-38.6
319,Chapais,1547954460,1,-36.41,73,3.36,49.78,-74.86
320,Paamiut,1547956277,80,27.59,100,19.26,61.99,-49.67
321,San Cristobal,1547953200,75,55.27,100,5.82,-0.39,-78.55
322,Osorno,1547956287,0,58.86,90,4.94,-40.57,-73.14
323,Kjollefjord,1547956287,76,20.84,87,9.75,70.95,27.35
324,Prince George,1547953200,1,37.4,64,13.87,53.92,-122.75
325,San Juan,1547956186,0,69.53,53,9.42,-31.54,-68.53
326,Rock Hill,1547954700,90,54.82,100,5.82,34.92,-81.03
327,Bagdarin,1547956289,64,11.43,55,5.73,54.44,113.59
328,Helong,1547956290,80,54.36,96,3.49,25.94,116.13
329,Kolokani,1547956290,0,55.71,32,9.53,13.58,-8.03
330,Palatka,1547955300,75,67.23,64,5.82,29.65,-81.64
331,Tessalit,1547956067,0,41,27,8.97,20.2,1.01
332,Oussouye,1547953200,0,69.8,43,6.93,12.49,-16.54
333,Atyrau,1547955000,90,32,93,8.95,47.1,51.92
334,Konstantinovka,1547956291,92,18.23,85,5.39,47.99,28.86
335,Opelika,1547955600,90,56.43,87,11.41,32.65,-85.38
336,Lowicz,1547955000,20,20.03,92,3.36,52.11,19.95
337,Bitung,1547955000,20,87.8,66,9.17,1.44,125.19
338,Sfantu Gheorghe,1547953200,90,30.2,92,12.75,44.65,26.83
339,Hohhot,1547953200,0,17.6,40,11.18,40.81,111.65
340,Saskylakh,1547956292,64,-22.1,64,11.99,71.97,114.09
341,Santa Ana,1547952600,0,71.6,83,2.24,13.99,-89.56
342,Talnakh,1547956217,56,-0.81,76,13.44,69.49,88.39
343,Senekal,1547956294,0,54.23,82,13.44,-28.32,27.62
344,Kitimat,1547953200,90,35.6,93,31.09,54.02,-128.69
345,Batemans Bay,1547956054,0,78.26,72,5.5,-35.71,150.18
346,Goderich,1547956294,76,8.24,100,14.9,43.74,-81.71
347,Mackay,1547953200,20,4.1,84,8.05,53.65,-115.58
348,Turan,1547956295,20,-19.49,74,2.04,52.15,93.92
349,Vung Tau,1547956033,8,80.91,90,17.81,10.35,107.08
350,Seoul,1547955000,1,33.03,29,3.36,37.57,126.98
351,Monte Alegre de Sergipe,1547956295,44,73.98,85,7.63,-10.03,-37.56
352,Varhaug,1547954400,90,32,100,8.05,58.61,5.65
353,San Buenaventura,1547956296,0,39.78,64,2.71,27.06,-101.55
354,Shu,1547956296,12,24.98,71,3.83,43.6,73.76
355,Kungurtug,1547956297,0,-19.71,46,2.37,50.6,97.53
356,Pilar,1547953200,0,67.93,64,10.29,-34.46,-58.91
357,Pasighat,1547956297,0,60.03,36,2.15,28.06,95.33
358,Aksu,1547955000,90,32,84,8.95,52.04,76.93
359,Mokhsogollokh,1547956298,0,-32.63,56,2.71,61.4,128.95
360,Zyryanka,1547956358,20,-40.1,87,2.59,65.73,150.89
361,Stephenville,1547955300,1,33.06,60,6.93,32.22,-98.2
362,Bahia Honda,1547956358,32,69.08,90,4.83,22.9,-83.16
363,Matara,1547956359,0,38.75,92,2.04,-13.74,-72.9
364,Vredendal,1547956359,0,47.79,79,2.48,-31.68,18.49
365,Pelym,1547956359,0,18.63,83,5.73,61.01,62
366,Okhotsk,1547956359,64,-7.43,100,11.65,59.36,143.24
367,Petropavlovsk-Kamchatskiy,1547955000,75,37.4,64,4.47,53.05,158.65
368,Progreso,1547953200,0,64.4,77,8.05,-34.68,-56.22
369,San Quintin,1547956360,0,79.83,69,3.27,17.54,120.52
370,Kununurra,1547955000,75,98.6,44,5.82,-15.77,128.74
371,Isangel,1547956229,92,78.84,100,18.7,-19.55,169.27
372,Hualmay,1547956361,44,66.38,98,1.25,-11.1,-77.61
373,Portland,1547955420,90,45.48,92,4.7,45.52,-122.67
374,Morges,1547954400,75,27.75,92,1.12,46.51,6.5
375,Tecoanapa,1547952480,90,78.8,78,3.36,16.99,-99.26
376,Biryusinsk,1547956362,44,26.24,59,8.63,55.96,97.82
377,Venado Tuerto,1547956362,0,60.93,70,8.19,-33.75,-61.97
378,Pirovskoye,1547956362,64,20.88,84,6.96,57.63,92.27
379,Poya,1547956362,12,78.84,94,19.82,-21.35,165.16
380,Kruisfontein,1547956363,0,58.68,91,7.63,-34,24.73
381,Ondarroa,1547953200,92,43.95,87,3.36,43.32,-2.42
382,Anaconda,1547952780,90,35.06,84,8.05,46.13,-112.94
383,Payo,1547956363,44,85.28,74,8.97,-3.75,103.64
384,Sabha,1547956364,8,52.07,95,7.63,27.03,14.43
385,Slave Lake,1547954340,90,6.8,77,17.22,55.28,-114.77
386,Tilichiki,1547956273,92,25.97,84,9.19,60.47,166.1
387,Pangai,1547953200,75,82.4,88,11.41,-19.8,-174.35
388,Fershampenuaz,1547956364,80,11.12,75,4.61,53.52,59.82
389,Hudson Bay,1547956365,32,-20.57,87,3.83,52.86,-102.4
390,Kodiak,1547955300,1,8.08,55,4.7,39.95,-94.76
391,Severo-Kurilsk,1547956213,88,33.26,97,17.69,50.68,156.12
392,Dalvik,1547954400,68,28.4,100,8.05,57.79,14.13
393,Kakonko,1547956365,44,57.2,94,2.93,-3.28,30.97
394,Ust-Maya,1547956287,32,-37.76,75,3.38,60.42,134.54
395,Karasburg,1547956366,0,49.41,28,4.61,-28.01,18.75
396,Ulladulla,1547953200,75,77,61,9.17,-35.36,150.48
397,Bubaque,1547956366,0,75.56,100,15.57,11.28,-15.83
398,Namatanai,1547956366,92,80.64,100,16.58,-3.66,152.44
399,Aktau,1547955000,0,39.2,100,8.95,43.65,51.16
400,Strathmore,1547953200,40,33.66,40,4.7,51.04,-113.4
401,Umm Kaddadah,1547956367,0,50.49,40,8.63,13.6,26.69
402,Saldanha,1547956368,36,40.23,96,5.17,41.42,-6.55
403,Lupiro,1547956368,92,70.74,99,2.82,-8.39,36.67
404,Pokhara,1547956182,0,46.85,52,3.38,28.21,83.99
405,Hirara,1547953200,75,70.68,83,11.41,24.8,125.28
406,Crestview,1547955660,75,57.79,87,14.99,30.76,-86.57
407,Kijang,1547953200,0,48.2,39,16.11,35.24,129.21
408,Pevek,1547956198,44,-22.46,100,6.51,69.7,170.27
409,Buin,1547953200,0,64.4,63,10.29,-33.73,-70.74
410,Boissevain,1547955300,90,-13.01,75,8.05,49.23,-100.06
411,Soe,1547952600,24,26.6,68,18.34,57.91,26.05
412,Semirom,1547956371,0,-4.73,61,1.7,31.41,51.57
413,Clovis,1547952960,40,55.15,62,2.15,36.83,-119.7
414,Muchkapskiy,1547956371,68,17.73,87,9.08,51.85,42.48
415,Puerto Leguizamo,1547956371,88,71.87,99,2.37,-0.19,-74.78
416,Krasnyy Chikoy,1547956371,20,9.99,55,2.37,50.36,108.75
417,Ixtapa,1547952180,20,73.4,100,2.24,20.71,-105.21
418,Chancay,1547953200,0,71.6,83,9.17,-11.56,-77.27
419,Xichang,1547956372,0,39.24,35,1.81,27.88,102.25
420,Vila Franca do Campo,1547953200,20,55.4,76,5.82,37.72,-25.43
421,Apac,1547956148,80,70.11,86,4.61,1.98,32.53
422,Shahrud,1547956433,0,16.25,78,2.59,36.42,54.97
423,Niquero,1547956433,12,78.39,97,13.11,20.04,-77.58
424,Santa Maria del Oro,1547956434,0,34.7,67,2.59,25.95,-105.37
425,Mabaruma,1547956434,92,78.39,81,7.74,8.2,-59.78
426,Lavrentiya,1547956434,80,1.76,100,8.52,65.58,-170.99
427,Cajati,1547956434,48,72.77,96,3.71,-24.73,-48.11
428,Manggar,1547956435,76,81.59,95,10.98,-2.88,108.27
429,Puerto Escondido,1547956435,48,81.23,100,0.92,15.86,-97.07
430,Santa Cruz,1547954400,1,58.66,82,3.36,36.97,-122.03
431,Mitu,1547956436,24,12.29,85,1.48,36.2,46.09
432,Sijunjung,1547956437,36,79.52,76,3.15,-0.69,100.95
433,Teguldet,1547956437,12,18.36,84,7.85,57.31,88.17
434,Smidovich,1547956437,64,4.68,60,3.83,48.6,133.81
435,Byron Bay,1547955000,56,86.58,58,11.41,-28.65,153.62
436,Safranbolu,1547956437,8,25.11,88,2.48,41.25,32.69
437,Fort Morgan,1547955900,0,32.32,57,5.82,40.25,-103.8
438,Opuwo,1547956438,64,62.01,64,2.59,-18.06,13.84
439,Nelson Bay,1547953320,90,77,73,10.29,-32.72,152.14
440,Yarada,1547955000,0,75.2,69,5.82,17.65,83.27
441,Russas,1547956438,56,75.2,94,4.5,-4.93,-37.97
442,Weyburn,1547956439,92,-1.85,78,16.46,49.67,-103.85
443,Coihaique,1547953200,0,60.57,55,3.36,-45.58,-72.07
444,Mikhaylovka,1547956439,24,0.77,60,2.59,52.96,103.29
445,Avera,1547955300,90,60.49,92,19.46,33.19,-82.53
446,Kukurecani,1547955000,90,33.8,100,1.12,41.1,21.33
447,Beckley,1547955300,75,42.06,96,7.96,37.78,-81.19
448,Labuhan,1547956310,48,82.4,85,3.15,-2.54,115.51
449,Najran,1547953200,5,48.2,49,1.59,17.54,44.22
450,El Cobre,1547952720,40,73.4,73,4.7,20.05,-75.95
451,Hasaki,1547955000,75,50,100,5.82,35.73,140.83
452,Kishtwar,1547956441,80,27.18,79,1.92,33.31,75.77
453,Assiniboia,1547956441,92,11.84,75,12.21,49.63,-105.99
454,Sibut,1547956442,0,64.08,81,2.82,5.73,19.09
455,Grasse,1547955000,90,41.32,93,3.36,43.66,6.92
456,Gubkinskiy,1547956442,44,4.86,85,3.38,64.43,76.5
457,Steamboat Springs,1547955300,90,26.85,92,6.93,40.48,-106.83
458,Antsohihy,1547956443,92,72.54,100,3.83,-14.88,47.99
459,Colares,1547953200,40,54.54,81,17.22,38.8,-9.45
460,Saint Anthony,1547955120,90,32.68,91,4.7,43.97,-111.68
461,Iqaluit,1547953200,5,-23.81,74,4.7,63.75,-68.52
462,Araouane,1547956444,0,42.21,37,6.4,18.9,-3.53
463,Ewa Beach,1547955480,90,78.15,69,8.05,21.32,-158.01
464,Torbay,1547953200,20,14,78,17.22,47.66,-52.73
465,Gurupi,1547956445,20,77.81,85,8.08,-11.73,-49.07
466,Mamaku,1547956445,0,74.12,54,9.98,-38.1,176.07
467,Svetlaya,1547956445,68,17.51,100,7.18,46.54,138.33
468,Sobolevo,1547956445,64,23.94,88,16.24,54.43,31.9
469,Kirkenes,1547954400,24,-2.21,84,8.05,69.73,30.05
470,Miandoab,1547953200,0,19.4,79,9.17,36.97,46.1
471,Samagaltay,1547956446,36,-21.51,56,1.7,50.6,95
472,Anadyr,1547953200,0,-11.21,76,13.42,64.73,177.51
473,Kozhanka,1547955000,36,8.6,92,4.47,49.97,29.75
474,Tinskoy,1547956447,56,22.91,69,6.73,56.15,96.92
475,La Grande,1547952960,90,33.98,92,2.26,45.32,-118.09
476,Gumdag,1547956447,44,34.83,84,4.94,39.2,54.59
477,Okmulgee,1547955300,75,24.66,70,12.75,35.62,-95.96
478,La Ronge,1547953200,5,-27.41,74,8.05,55.1,-105.3
479,Batagay-Alyta,1547956448,56,-43.56,0,2.71,67.8,130.41
480,Jacareacanga,1547956508,20,77.72,87,3.38,-6.22,-57.76
481,Muroto,1547953200,75,53.6,76,4.7,33.37,134.14
482,Bucerias,1547952180,20,73.4,100,2.24,20.76,-105.33
483,Ancud,1547953200,92,53.6,93,3.36,-41.87,-73.83
484,Lovozero,1547956509,12,-14,61,2.04,68.01,35.02
485,Zheshart,1547956510,64,13.64,80,4.72,62.09,49.59
486,Makat,1547956510,80,22.01,94,3.27,47.65,53.35
487,Oktyabrskoye,1547955000,20,19.4,85,17.9,56.73,85.44
488,Lagdo,1547953200,0,66.2,37,2.15,9.06,13.67
489,Haines Junction,1547956511,36,-10.89,64,2.15,60.75,-137.51
490,Hamilton,1547952900,75,62.6,82,6.93,32.3,-64.78
491,Magaria,1547956511,8,57.96,64,2.82,13,8.91
492,Meadow Lake,1547956261,88,-3.74,73,8.97,54.13,-108.44
493,Pacifica,1547955300,90,59.77,87,1.92,37.61,-122.49
494,Lorengau,1547956512,80,81.09,100,11.21,-2.02,147.27
495,Ordzhonikidze,1547956512,56,32.13,100,8.19,44.96,35.36
496,Gat,1547955000,0,65.23,25,18.34,14.69,-16.54
497,Humaita,1547954400,75,62.69,93,5.82,-24.93,-65.37
498,Atar,1547956512,0,45.68,60,6.51,20.52,-13.05
499,Longyearbyen,1547952600,20,-2.21,64,5.82,78.22,15.63
500,Serebryansk,1547956513,36,8.19,55,3.04,49.68,83.3
501,Banjar,1547956513,36,82.58,81,3.6,-7.37,108.54
502,Sur,1547956218,12,69.71,100,11.32,22.57,59.53
503,Aykino,1547956514,68,5.13,75,3.71,62.22,49.99
504,Sabang,1547956253,92,75.2,100,17.02,13.72,123.58
505,Alcaniz,1547956514,88,34.16,97,2.59,41.05,-0.13
506,Klyuchi,1547956281,88,24.03,89,11.43,52.25,79.17
507,Nikel,1547954400,24,-2.21,84,8.05,69.41,30.21
508,Grand Gaube,1547953200,40,78.8,83,3.36,-20.01,57.66
509,Roebourne,1547956303,0,102.11,27,6.73,-20.77,117.15
510,Tautira,1547955000,40,84.2,66,11.41,-17.73,-149.15
511,Nerja,1547955000,92,48.24,93,7.85,36.75,-3.88
512,Sidrolandia,1547953200,20,71.6,88,4.7,-20.93,-54.96
513,Ludvika,1547954400,0,15.8,72,11.41,60.15,15.18
514,Swan River,1547956394,24,-29.52,46,3.6,52.11,-101.27
515,Chabahar,1547956517,0,69.17,100,16.46,25.29,60.65
516,Skjervoy,1547956517,68,26.91,100,10.54,70.03,20.97
517,Santa Maria,1547956518,92,65.21,96,12.66,-29.69,-53.81
518,Suoyarvi,1547956518,76,8.24,87,4.83,62.08,32.35
519,Suarez,1547956519,8,70.16,73,1.59,4.05,-74.83
520,Palmer,1547955000,0,78.8,41,13.87,-34.85,139.16
521,Kupino,1547956519,48,8.78,79,10.54,54.36,77.31
522,Imeni Poliny Osipenko,1547956519,48,-3.29,75,3.71,52.42,136.49
523,Clyde River,1547953200,90,-23.81,82,2.24,70.47,-68.59
524,Olyka,1547956520,68,18.63,79,3.38,50.73,25.81
525,Sorland,1547956520,76,35.33,100,19.26,67.67,12.69
526,Arlit,1547956331,48,64.08,45,3.04,18.74,7.39
527,Multai,1547956520,0,56.66,70,2.59,21.77,78.26
528,Katherine,1547955000,0,91.4,55,10.29,-14.47,132.26
529,Samarai,1547956521,92,78.71,100,14.23,-10.62,150.67
530,Oyabe,1547953200,75,43.29,81,9.17,36.68,136.87
531,Lazaro Cardenas,1547952360,5,39.2,35,2.37,28.39,-105.62
532,Henties Bay,1547956521,0,62.01,100,7.4,-22.12,14.28
533,Dzhebariki-Khaya,1547956522,0,-47.61,0,2.82,62.22,135.8
534,Cedar City,1547952780,1,37.04,69,3.36,37.68,-113.06
535,Magadan,1547956283,88,16.7,100,21.72,59.56,150.8
536,Griffith,1547953200,92,92.44,22,5.82,-34.29,146.06
537,Takoradi,1547956522,20,79.34,100,5.84,4.89,-1.75
538,Krasne,1547955000,0,23,85,6.71,49.91,24.61
539,Puerto Rondon,1547956523,56,87.08,44,8.97,6.28,-71.1
540,Aginskoye,1547956583,0,21.33,38,14.45,51.11,114.54
541,Svay Rieng,1547956584,0,85.46,68,5.84,11.08,105.8
542,Verkhnevilyuysk,1547956584,64,-14.9,66,5.39,63.45,120.31
543,Vestmanna,1547954400,92,39.2,80,21.92,62.16,-7.17
544,Akureyri,1547953200,40,33.8,64,9.17,65.68,-18.09
545,Bulawayo,1547956585,92,64.08,99,13.78,-20.16,28.59
546,Cockburn Town,1547956585,0,78.39,100,19.26,21.46,-71.14
547,Linqiong,1547953200,20,51.8,57,2.24,30.42,103.46
548,Grimshaw,1547954820,75,6.8,84,4.7,56.19,-117.61
549,Kidodi,1547956586,88,69.53,99,2.71,-7.6,37
550,Ranong,1547953200,40,80.6,78,1.12,9.96,98.62
551,Truckee,1547955300,1,40.53,70,6.62,39.33,-120.18
552,Morehead,1547955600,90,38.8,93,16.11,38.18,-83.43
553,Souillac,1547955000,100,42.8,93,2.24,45.6,-0.6
554,Urcos,1547953200,75,57.2,54,2.26,-13.69,-71.62
555,Vallenar,1547956587,0,59.49,94,1.14,-28.58,-70.76
556,Viedma,1547956587,0,75.83,30,14.23,-40.81,-62.99
557,Limbe,1547956588,24,69.03,96,1.48,-15.81,35.05
